"S.No.","Scan ID","QR Code ID","Date Of Scan","Site Name","Supervisor Name","Supervisor ID","Supervisor Mobile Number","Ward Name","Zone","Before Clean Time","Before Image","After Clean Time","After Image","Feedback","Category","Building/Street Name","Latitude","Longitude"
"1","1143","ALNNDG42","11/02/2026","Zonal Amit Lal","Shivam Garg","ALNNEGA1354","9958394707","04.Sarai Garhi","Z3-C5","10:41 AM","https://mygreenassist.s3.ap-south-1.amazonaws.com/bulk_collection_sites/175/before_scan_1770786683025.png","11:15 AM","https://mygreenassist.s3.ap-south-1.amazonaws.com/bulk_collection_sites/175/after_scan_1770788746663.png","","Dhalao Ghar","Anarkali Covered","27.871647","78.067868"
"2","1142","ALNNDG61","11/02/2026","Zonal Yogesh Kumar","Krishna Kumar Verma","ALNNEGA3469","8958791189","54.Baraula Zafrabad","Z4-C8","10:37 AM","https://mygreenassist.s3.ap-south-1.amazonaws.com/bulk_collection_sites/663/before_scan_1770786476006.png","10:42 AM","https://mygreenassist.s3.ap-south-1.amazonaws.com/bulk_collection_sites/663/after_scan_1770786767863.png","","Dhalao Ghar","ITI Road Purnagiri Mandir Point","27.905968","78.059977"
"3","1141","ALNNDG60","11/02/2026","Zonal Yogesh Kumar","Krishna Kumar Verma","ALNNEGA3469","8958791189","14.Suraksha Bihar","Z4-C8","10:15 AM","https://mygreenassist.s3.ap-south-1.amazonaws.com/bulk_collection_sites/193/before_scan_1770785115753.png","10:16 AM","https://mygreenassist.s3.ap-south-1.amazonaws.com/bulk_collection_sites/193/after_scan_1770785208040.png","","Dhalao Ghar","G.T Road Police Line Nagar Nigam Store Point","27.902943","78.053713"
"4","1140","ALNNDG58","11/02/2026","Zonal Yogesh Kumar","Krishna Kumar Verma","ALNNEGA3469","8958791189","30.Risal Singh Nagar","Z4-C8","09:55 AM","https://mygreenassist.s3.ap-south-1.amazonaws.com/bulk_collection_sites/191/before_scan_1770783925690.png","09:59 AM","https://mygreenassist.s3.ap-south-1.amazonaws.com/bulk_collection_sites/191/after_scan_1770784156972.png","","Dhalao Ghar","G.T Road Dev Motors Point","27.899353","78.056297"
"5","1139","ALNNDG48","11/02/2026","Zonal Amit Lal","Shivam Garg","ALNNEGA1354","9958394707","43.Avas Vikas Colony lglas Road","Z3-C5","08:45 AM","https://mygreenassist.s3.ap-south-1.amazonaws.com/bulk_collection_sites/181/before_scan_1770779743223.png","08:56 AM","https://mygreenassist.s3.ap-south-1.amazonaws.com/bulk_collection_sites/181/after_scan_1770780389403.png","","Dhalao Ghar","Agra Road Gopal Bagichi","27.86369","78.073112"
